{"data":[{"long_id":"1101","short_id":"01","name":"KABUPATEN SIMEULUE","lat":"2.6439724","lon":"96.0255738","tz":"7"},{"long_id":"1102","short_id":"02","name":"KABUPATEN ACEH SINGKIL","lat":"2.3589459","lon":"97.87216","tz":"7"},{"long_id":"1103","short_id":"03","name":"KABUPATEN ACEH SELATAN","lat":"3.3115056","lon":"97.3516558","tz":"7"},{"long_id":"1104","short_id":"04","name":"KABUPATEN ACEH TENGGARA","lat":"3.3088666","lon":"97.6982272","tz":"7"},{"long_id":"1105","short_id":"05","name":"KABUPATEN ACEH TIMUR","lat":"4.5224111","lon":"97.6114217","tz":"7"},{"long_id":"1106","short_id":"06","name":"KABUPATEN ACEH TENGAH","lat":"4.4482641","lon":"96.8350999","tz":"7"},{"long_id":"1107","short_id":"07","name":"KABUPATEN ACEH BARAT","lat":"4.4542745","lon":"96.1526985","tz":"7"},{"long_id":"1108","short_id":"08","name":"KABUPATEN ACEH BESAR","lat":"5.4529168","lon":"95.4777811","tz":"7"},{"long_id":"1109","short_id":"09","name":"KABUPATEN PIDIE","lat":"5.0742659","lon":"95.940971","tz":"7"},{"long_id":"1110","short_id":"10","name":"KABUPATEN BIREUEN","lat":"5.1086446","lon":"96.663812","tz":"7"},{"long_id":"1111","short_id":"11","name":"KABUPATEN ACEH UTARA","lat":"4.9786331","lon":"97.2221421","tz":"7"},{"long_id":"1112","short_id":"12","name":"KABUPATEN ACEH BARAT DAYA","lat":"3.7963426","lon":"97.0068393","tz":"7"},{"long_id":"1113","short_id":"13","name":"KABUPATEN GAYO LUES","lat":"3.955165","lon":"97.3516558","tz":"7"},{"long_id":"1114","short_id":"14","name":"KABUPATEN ACEH TAMIANG","lat":"4.2328871","lon":"98.0028892","tz":"7"},{"long_id":"1115","short_id":"15","name":"KABUPATEN NAGAN RAYA","lat":"4.1248406","lon":"96.4929797","tz":"7"},{"long_id":"1116","short_id":"16","name":"KABUPATEN ACEH JAYA","lat":"4.7873684","lon":"95.6457951","tz":"7"},{"long_id":"1117","short_id":"17","name":"KABUPATEN BENER MERIAH","lat":"4.7513606","lon":"96.9525224","tz":"7"},{"long_id":"1118","short_id":"18","name":"KABUPATEN PIDIE JAYA","lat":"5.1548063","lon":"96.195132","tz":"7"},{"long_id":"1171","short_id":"71","name":"KOTA BANDA ACEH","lat":"5.5482904","lon":"95.3237559","tz":"7"},{"long_id":"1172","short_id":"72","name":"KOTA SABANG","lat":"5.880241","lon":"95.336574","tz":"7"},{"long_id":"1173","short_id":"73","name":"KOTA LANGSA","lat":"4.4757799","lon":"97.9641022","tz":"7"},{"long_id":"1174","short_id":"74","name":"KOTA LHOKSEUMAWE","lat":"5.1811638","lon":"97.1413222","tz":"7"},{"long_id":"1175","short_id":"75","name":"KOTA SUBULUSSALAM","lat":"2.7121164","lon":"97.9157099","tz":"7"}]}