{"data":[{"long_id":"3101","short_id":"01","name":"KABUPATEN KEPULAUAN SERIBU","lat":"-5.7985265","lon":"106.5071981","tz":"7"},{"long_id":"3171","short_id":"71","name":"KOTA JAKARTA SELATAN","lat":"-6.2614927","lon":"106.8105998","tz":"7"},{"long_id":"3172","short_id":"72","name":"KOTA JAKARTA TIMUR","lat":"-6.2250138","lon":"106.9004472","tz":"7"},{"long_id":"3173","short_id":"73","name":"KOTA JAKARTA PUSAT","lat":"-6.1864864","lon":"106.8340911","tz":"7"},{"long_id":"3174","short_id":"74","name":"KOTA JAKARTA BARAT","lat":"-6.1683295","lon":"106.7588494","tz":"7"},{"long_id":"3175","short_id":"75","name":"KOTA JAKARTA UTARA","lat":"-6.1214609","lon":"106.7741133","tz":"7"}]}