{"data":[{"long_id":"7501","short_id":"01","name":"KABUPATEN BOALEMO","lat":"0.7013419","lon":"122.2653887","tz":"8"},{"long_id":"7502","short_id":"02","name":"KABUPATEN GORONTALO","lat":"0.5435442","lon":"123.0567693","tz":"8"},{"long_id":"7503","short_id":"03","name":"KABUPATEN POHUWATO","lat":"0.7055278","lon":"121.7195459","tz":"8"},{"long_id":"7504","short_id":"04","name":"KABUPATEN BONE BOLANGO","lat":"0.5657885","lon":"123.3486147","tz":"8"},{"long_id":"7505","short_id":"05","name":"KABUPATEN GORONTALO UTARA","lat":"0.9252647","lon":"122.4920088","tz":"8"},{"long_id":"7571","short_id":"71","name":"KOTA GORONTALO","lat":"0.5435442","lon":"123.0567693","tz":"8"}]}