{"data":[{"long_id":"3201","short_id":"01","name":"KABUPATEN BOGOR","lat":"-6.5971469","lon":"106.8060388","tz":"7"},{"long_id":"3202","short_id":"02","name":"KABUPATEN SUKABUMI","lat":"-6.9277361","lon":"106.9299579","tz":"7"},{"long_id":"3203","short_id":"03","name":"KABUPATEN CIANJUR","lat":"-6.8168237","lon":"107.1425442","tz":"7"},{"long_id":"3204","short_id":"04","name":"KABUPATEN BANDUNG","lat":"-6.9174639","lon":"107.6191228","tz":"7"},{"long_id":"3205","short_id":"05","name":"KABUPATEN GARUT","lat":"-7.227906","lon":"107.908699","tz":"7"},{"long_id":"3206","short_id":"06","name":"KABUPATEN TASIKMALAYA","lat":"-7.3505808","lon":"108.2171633","tz":"7"},{"long_id":"3207","short_id":"07","name":"KABUPATEN CIAMIS","lat":"-7.3298676","lon":"108.3322547","tz":"7"},{"long_id":"3208","short_id":"08","name":"KABUPATEN KUNINGAN","lat":"-6.9810103","lon":"108.4928912","tz":"7"},{"long_id":"3209","short_id":"09","name":"KABUPATEN CIREBON","lat":"-6.7320229","lon":"108.5523164","tz":"7"},{"long_id":"3210","short_id":"10","name":"KABUPATEN MAJALENGKA","lat":"-6.8364221","lon":"108.2274234","tz":"7"},{"long_id":"3211","short_id":"11","name":"KABUPATEN SUMEDANG","lat":"-6.832858","lon":"107.9531836","tz":"7"},{"long_id":"3212","short_id":"12","name":"KABUPATEN INDRAMAYU","lat":"-6.3373097","lon":"108.3258198","tz":"7"},{"long_id":"3213","short_id":"13","name":"KABUPATEN SUBANG","lat":"-6.5622888","lon":"107.7607951","tz":"7"},{"long_id":"3214","short_id":"14","name":"KABUPATEN PURWAKARTA","lat":"-6.5406665","lon":"107.4462717","tz":"7"},{"long_id":"3215","short_id":"15","name":"KABUPATEN KARAWANG","lat":"-6.3227303","lon":"107.3375791","tz":"7"},{"long_id":"3216","short_id":"16","name":"KABUPATEN BEKASI","lat":"-6.2382699","lon":"106.9755726","tz":"7"},{"long_id":"3217","short_id":"17","name":"KABUPATEN BANDUNG BARAT","lat":"-6.8652214","lon":"107.4919767","tz":"7"},{"long_id":"3218","short_id":"18","name":"KABUPATEN PANGANDARAN","lat":"-7.683333","lon":"108.65","tz":"7"},{"long_id":"3271","short_id":"71","name":"KOTA BOGOR","lat":"-6.5971469","lon":"106.8060388","tz":"7"},{"long_id":"3272","short_id":"72","name":"KOTA SUKABUMI","lat":"-6.9277361","lon":"106.9299579","tz":"7"},{"long_id":"3273","short_id":"73","name":"KOTA BANDUNG","lat":"-6.9174639","lon":"107.6191228","tz":"7"},{"long_id":"3274","short_id":"74","name":"KOTA CIREBON","lat":"-6.7320229","lon":"108.5523164","tz":"7"},{"long_id":"3275","short_id":"75","name":"KOTA BEKASI","lat":"-6.2382699","lon":"106.9755726","tz":"7"},{"long_id":"3276","short_id":"76","name":"KOTA DEPOK","lat":"-6.4024844","lon":"106.7942405","tz":"7"},{"long_id":"3277","short_id":"77","name":"KOTA CIMAHI","lat":"-6.8840816","lon":"107.5413039","tz":"7"},{"long_id":"3278","short_id":"78","name":"KOTA TASIKMALAYA","lat":"-7.3505808","lon":"108.2171633","tz":"7"},{"long_id":"3279","short_id":"79","name":"KOTA BANJAR","lat":"-7.3706874","lon":"108.5342487","tz":"7"}]}