{"data":[{"long_id":"6501","short_id":"01","name":"KABUPATEN MALINAU","lat":"3.0730929","lon":"116.0413889","tz":"8"},{"long_id":"6502","short_id":"02","name":"KABUPATEN BULUNGAN","lat":"2.9042476","lon":"116.9852422","tz":"8"},{"long_id":"6503","short_id":"03","name":"KABUPATEN TANA TIDUNG","lat":"3.551869","lon":"117.0794082","tz":"8"},{"long_id":"6504","short_id":"04","name":"KABUPATEN NUNUKAN","lat":"4.1393382","lon":"117.6496257","tz":"8"},{"long_id":"6571","short_id":"71","name":"KOTA TARAKAN","lat":"3.3273599","lon":"117.5785049","tz":"8"}]}