{"data":[{"long_id":"8101","short_id":"01","name":"KABUPATEN MALUKU TENGGARA BARAT","lat":"-7.5322642","lon":"131.3611121","tz":"9"},{"long_id":"8102","short_id":"02","name":"KABUPATEN MALUKU TENGGARA","lat":"-5.7512455","lon":"132.7271587","tz":"9"},{"long_id":"8103","short_id":"03","name":"KABUPATEN MALUKU TENGAH","lat":"-3.0166501","lon":"129.4864411","tz":"9"},{"long_id":"8104","short_id":"04","name":"KABUPATEN BURU","lat":"-3.3307379","lon":"126.6957216","tz":"9"},{"long_id":"8105","short_id":"05","name":"KABUPATEN KEPULAUAN ARU","lat":"-6.1946502","lon":"134.5501935","tz":"9"},{"long_id":"8106","short_id":"06","name":"KABUPATEN SERAM BAGIAN BARAT","lat":"-3.1271575","lon":"128.4008357","tz":"9"},{"long_id":"8107","short_id":"07","name":"KABUPATEN SERAM BAGIAN TIMUR","lat":"-3.4233267","lon":"130.2271243","tz":"9"},{"long_id":"8108","short_id":"08","name":"KABUPATEN MALUKU BARAT DAYA","lat":"-7.7851588","lon":"126.3498097","tz":"9"},{"long_id":"8109","short_id":"09","name":"KABUPATEN BURU SELATAN","lat":"-3.7273972","lon":"126.6957216","tz":"9"},{"long_id":"8171","short_id":"71","name":"KOTA AMBON","lat":"-3.6553932","lon":"128.1907723","tz":"9"},{"long_id":"8172","short_id":"72","name":"KOTA TUAL","lat":"-5.626563","lon":"132.7520867","tz":"9"}]}