{"data":[{"long_id":"8201","short_id":"01","name":"KABUPATEN HALMAHERA BARAT","lat":"1.3589663","lon":"127.5960704","tz":"9"},{"long_id":"8202","short_id":"02","name":"KABUPATEN HALMAHERA TENGAH","lat":"0.4419543","lon":"128.3587174","tz":"9"},{"long_id":"8203","short_id":"03","name":"KABUPATEN KEPULAUAN SULA","lat":"-1.8321222","lon":"125.958777","tz":"9"},{"long_id":"8204","short_id":"04","name":"KABUPATEN HALMAHERA SELATAN","lat":"-1.5109015","lon":"127.7237678","tz":"9"},{"long_id":"8205","short_id":"05","name":"KABUPATEN HALMAHERA UTARA","lat":"1.5074308","lon":"127.8936663","tz":"9"},{"long_id":"8206","short_id":"06","name":"KABUPATEN HALMAHERA TIMUR","lat":"1.3121235","lon":"128.4849923","tz":"9"},{"long_id":"8207","short_id":"07","name":"KABUPATEN PULAU MOROTAI","lat":"2.3656672","lon":"128.4008357","tz":"9"},{"long_id":"8208","short_id":"08","name":"KABUPATEN PULAU TALIABU","lat":"-1.8268344","lon":"124.7740793","tz":"9"},{"long_id":"8271","short_id":"71","name":"KOTA TERNATE","lat":"0.7898868","lon":"127.3753792","tz":"9"},{"long_id":"8272","short_id":"72","name":"KOTA TIDORE KEPULAUAN","lat":"0.5060207","lon":"127.681228","tz":"9"}]}