{"data":[{"long_id":"7301","short_id":"01","name":"KABUPATEN KEPULAUAN SELAYAR","lat":"-6.2869786","lon":"120.5048792","tz":"8"},{"long_id":"7302","short_id":"02","name":"KABUPATEN BULUKUMBA","lat":"-5.4329368","lon":"120.2051096","tz":"8"},{"long_id":"7303","short_id":"03","name":"KABUPATEN BANTAENG","lat":"-5.5169316","lon":"120.0202964","tz":"8"},{"long_id":"7304","short_id":"04","name":"KABUPATEN JENEPONTO","lat":"-5.554579","lon":"119.6730939","tz":"8"},{"long_id":"7305","short_id":"05","name":"KABUPATEN TAKALAR","lat":"-5.4162493","lon":"119.4875668","tz":"8"},{"long_id":"7306","short_id":"06","name":"KABUPATEN GOWA","lat":"-5.3102888","lon":"119.742604","tz":"8"},{"long_id":"7307","short_id":"07","name":"KABUPATEN SINJAI","lat":"-5.2171961","lon":"120.112735","tz":"8"},{"long_id":"7308","short_id":"08","name":"KABUPATEN MAROS","lat":"-5.0549145","lon":"119.6962677","tz":"8"},{"long_id":"7309","short_id":"09","name":"KABUPATEN PANGKAJENE DAN KEPULAUAN","lat":"-4.805035","lon":"119.5571677","tz":"8"},{"long_id":"7310","short_id":"10","name":"KABUPATEN BARRU","lat":"-4.436417","lon":"119.6499162","tz":"8"},{"long_id":"7311","short_id":"11","name":"KABUPATEN BONE","lat":"-4.7443383","lon":"120.0665236","tz":"8"},{"long_id":"7312","short_id":"12","name":"KABUPATEN SOPPENG","lat":"-4.3518541","lon":"119.9277947","tz":"8"},{"long_id":"7313","short_id":"13","name":"KABUPATEN WAJO","lat":"-4.022229","lon":"120.0665236","tz":"8"},{"long_id":"7314","short_id":"14","name":"KABUPATEN SIDENRENG RAPPANG","lat":"-3.7738981","lon":"120.0202964","tz":"8"},{"long_id":"7315","short_id":"15","name":"KABUPATEN PINRANG","lat":"-3.6483486","lon":"119.5571677","tz":"8"},{"long_id":"7316","short_id":"16","name":"KABUPATEN ENREKANG","lat":"-3.4590744","lon":"119.8815203","tz":"8"},{"long_id":"7317","short_id":"17","name":"KABUPATEN LUWU","lat":"-3.3052214","lon":"120.2512728","tz":"8"},{"long_id":"7318","short_id":"18","name":"KABUPATEN TANA TORAJA","lat":"-3.0753003","lon":"119.742604","tz":"8"},{"long_id":"7322","short_id":"22","name":"KABUPATEN LUWU UTARA","lat":"-2.2690446","lon":"119.9740534","tz":"8"},{"long_id":"7325","short_id":"25","name":"KABUPATEN LUWU TIMUR","lat":"-2.5825518","lon":"121.1710389","tz":"8"},{"long_id":"7326","short_id":"26","name":"KABUPATEN TORAJA UTARA","lat":"-2.8621942","lon":"119.8352303","tz":"8"},{"long_id":"7371","short_id":"71","name":"KOTA MAKASSAR","lat":"-5.1476651","lon":"119.4327314","tz":"8"},{"long_id":"7372","short_id":"72","name":"KOTA PAREPARE","lat":"-4.0096221","lon":"119.6290617","tz":"8"},{"long_id":"7373","short_id":"73","name":"KOTA PALOPO","lat":"-3.0108458","lon":"120.2022239","tz":"8"}]}