{"data":[{"long_id":"1301","short_id":"01","name":"KABUPATEN KEPULAUAN MENTAWAI","lat":"-1.426001","lon":"98.9245343","tz":"7"},{"long_id":"1302","short_id":"02","name":"KABUPATEN PESISIR SELATAN","lat":"-1.7223147","lon":"100.8903099","tz":"7"},{"long_id":"1303","short_id":"03","name":"KABUPATEN SOLOK","lat":"-0.7885335","lon":"100.6549823","tz":"7"},{"long_id":"1304","short_id":"04","name":"KABUPATEN SIJUNJUNG","lat":"-0.710678","lon":"100.9764019","tz":"7"},{"long_id":"1305","short_id":"05","name":"KABUPATEN TANAH DATAR","lat":"-0.4797043","lon":"100.5746224","tz":"7"},{"long_id":"1306","short_id":"06","name":"KABUPATEN PADANG PARIAMAN","lat":"-0.5546757","lon":"100.2151578","tz":"7"},{"long_id":"1307","short_id":"07","name":"KABUPATEN AGAM","lat":"-0.2209392","lon":"100.1703257","tz":"7"},{"long_id":"1308","short_id":"08","name":"KABUPATEN LIMA PULUH KOTA","lat":"0.0734192","lon":"100.5296115","tz":"7"},{"long_id":"1309","short_id":"09","name":"KABUPATEN PASAMAN","lat":"0.2209392","lon":"100.1703257","tz":"7"},{"long_id":"1310","short_id":"10","name":"KABUPATEN SOLOK SELATAN","lat":"-1.4157329","lon":"101.2523792","tz":"7"},{"long_id":"1311","short_id":"11","name":"KABUPATEN DHARMASRAYA","lat":"-1.1120568","lon":"101.6157773","tz":"7"},{"long_id":"1312","short_id":"12","name":"KABUPATEN PASAMAN BARAT","lat":"0.2213005","lon":"99.634135","tz":"7"},{"long_id":"1371","short_id":"71","name":"KOTA PADANG","lat":"-0.9470832","lon":"100.417181","tz":"7"},{"long_id":"1372","short_id":"72","name":"KOTA SOLOK","lat":"-0.7885335","lon":"100.6549823","tz":"7"},{"long_id":"1373","short_id":"73","name":"KOTA SAWAH LUNTO","lat":"-0.6841069","lon":"100.7323332","tz":"7"},{"long_id":"1374","short_id":"74","name":"KOTA PADANG PANJANG","lat":"-0.4652798","lon":"100.3992289","tz":"7"},{"long_id":"1375","short_id":"75","name":"KOTA BUKITTINGGI","lat":"-0.3039178","lon":"100.383479","tz":"7"},{"long_id":"1376","short_id":"76","name":"KOTA PAYAKUMBUH","lat":"-0.2298336","lon":"100.6309169","tz":"7"},{"long_id":"1377","short_id":"77","name":"KOTA PARIAMAN","lat":"-0.6115939","lon":"100.1336713","tz":"7"}]}